[
  {
    "id": "1",
    "name": "Durham",
    "city": "Durham",
    "country": "USA",
    "state": "North Carolina",
    "visited": true,
    "date": "2024-Present",
    "description": "Home at Duke University - studying Computer Science and Statistics",
    "coordinates": {
      "lat": 35.994,
      "lng": -78.8986
    },
    "photos": [
      "/Headshot.jpg",
      "/MirrorPic.jpg"
    ]
  },
  {
    "id": "2",
    "name": "Union",
    "city": "Union",
    "country": "USA",
    "state": "South Carolina",
    "visited": true,
    "date": "Home",
    "description": "My hometown where it all began",
    "coordinates": {
      "lat": 34.7154,
      "lng": -81.6234
    },
    "photos": [
      "/GreatAunt.jpg"
    ]
  },
  {
    "id": "3",
    "name": "Charlotte",
    "city": "Charlotte",
    "country": "USA",
    "state": "North Carolina",
    "visited": true,
    "date": "2023-2024",
    "description": "Frequent visits to the Queen City",
    "coordinates": {
      "lat": 35.2271,
      "lng": -80.8431
    },
    "photos": [
      "/Carowinds.jpg"
    ]
  },
  {
    "id": "1761705940730",
    "name": "Lancaster",
    "city": "Lancaster",
    "country": "USA",
    "state": "Pennsylvania",
    "visited": true,
    "coordinates": {
      "lat": 40.0379,
      "lng": -76.3055
    },
    "photos": [
      "/travel-photos/travel_1761709410509_IMG_0710.jpg"
    ],
    "description": "Add your description here!"
  }
]